 %      Time       Latitude      Longitude     Altitude       Vel-Xb       Vel-Yb       Vel-Zb         Roll        Pitch          Yaw       Wander     Accel-Xb     Accel-Yb     Accel-Zb     ARate-Xb     ARate-Yb     ARate-Zb
 %     (SOW)      (radians)      (radians)     (meters)        (m/s)        (m/s)        (m/s)    (radians)    (radians)    (radians)    (radians)       (m/s2)       (m/s2)       (m/s2)      (rad/s)      (rad/s)      (rad/s)
464792.67514   0.8400692819   0.2930643272   275.215728     1.996275     0.084720    -1.540472     0.013275    -0.019610    -0.888615     0.000000     0.000875    -0.135255     0.169043     0.000875    -0.001592     0.041998
464792.68014   0.8400692829   0.2930643254   275.223461     1.995602     0.085569    -1.541426     0.013279    -0.019607    -0.888816     0.000000    -0.001323    -0.131351     0.229681    -0.001323     0.003106     0.036593
464792.68514   0.8400692839   0.2930643237   275.231199     1.994813     0.086515    -1.542582     0.013294    -0.019613    -0.888994     0.000000    -0.001822    -0.210516     0.227729    -0.001822     0.000508     0.033991
464792.69014   0.8400692849   0.2930643219   275.238943     1.993810     0.087146    -1.543436     0.013296    -0.019618    -0.889166     0.000000    -0.000923    -0.185040     0.051684    -0.000923    -0.001791     0.035092
464792.69514   0.8400692859   0.2930643201   275.246689     1.992855     0.087656    -1.543743     0.013294    -0.019622    -0.889341     0.000000    -0.001423    -0.201628     0.076136    -0.001423     0.000608     0.035092
464792.70014   0.8400692870   0.2930643183   275.254437     1.991842     0.088240    -1.544087     0.013301    -0.019626    -0.889521     0.000000    -0.000723    -0.197684     0.042884    -0.000723     0.000508     0.037494
464792.70514   0.8400692880   0.2930643166   275.262186     1.990817     0.088731    -1.544128     0.013301    -0.019625    -0.889715     0.000000     0.000575    -0.210417    -0.073503     0.000575    -0.003391     0.041497
464792.71014   0.8400692890   0.2930643148   275.269934     1.989892     0.089276    -1.543473     0.013288    -0.019622    -0.889921     0.000000    -0.001023    -0.118493    -0.246616    -0.001023    -0.003091     0.040797
464792.71514   0.8400692900   0.2930643130   275.277677     1.989290     0.089910    -1.542478     0.013280    -0.019625    -0.890118     0.000000    -0.001123    -0.107704    -0.095021    -0.001123    -0.000792     0.036393
464792.72014   0.8400692910   0.2930643113   275.285418     1.988753     0.090432    -1.542199     0.013275    -0.019627    -0.890299     0.000000    -0.000224    -0.097912     0.027232    -0.000224    -0.003890     0.035793
464792.72514   0.8400692920   0.2930643095   275.293158     1.988278     0.090697    -1.542283     0.013259    -0.019627    -0.890478     0.000000    -0.000524    -0.092045     0.001801    -0.000524    -0.004190     0.035392
464792.73014   0.8400692930   0.2930643077   275.300897     1.987935     0.090936    -1.542084     0.013249    -0.019628    -0.890655     0.000000    -0.000524    -0.010863    -0.122409    -0.000524     0.000907     0.034992
464792.73514   0.8400692940   0.2930643059   275.308636     1.987890     0.090984    -1.541816     0.013252    -0.019627    -0.890832     0.000000     0.000076     0.012599     0.077109     0.000076    -0.002591     0.036193
464792.74014   0.8400692951   0.2930643042   275.316376     1.988049     0.090719    -1.542690     0.013241    -0.019625    -0.891016     0.000000     0.000276     0.068317     0.370516     0.000276    -0.003691     0.037894
464792.74514   0.8400692961   0.2930643024   275.324123     1.988434     0.090364    -1.544477     0.013233    -0.019622    -0.891200     0.000000    -0.000124     0.079053     0.323570    -0.000124     0.000708     0.034992
464792.75014   0.8400692971   0.2930643006   275.331877     1.988898     0.089957    -1.545703     0.013239    -0.019620    -0.891372     0.000000    -0.000024     0.124026     0.067326    -0.000024    -0.000092     0.033091
464792.75514   0.8400692981   0.2930642989   275.339635     1.989562     0.089067    -1.546375     0.013234    -0.019618    -0.891542     0.000000     0.000176     0.153341     0.256083     0.000176    -0.004990     0.035793
464792.76014   0.8400692991   0.2930642971   275.347400     1.990392     0.087922    -1.548275     0.013216    -0.019615    -0.891723     0.000000     0.000375     0.169934     0.624800     0.000375    -0.002391     0.036693
464792.76514   0.8400693001   0.2930642953   275.355177     1.991260     0.086757    -1.551232     0.013214    -0.019613    -0.891906     0.000000    -0.000723     0.151341     0.499612    -0.000723     0.001307     0.036093
464792.77014   0.8400693011   0.2930642935   275.362967     1.992062     0.085375    -1.553280     0.013221    -0.019615    -0.892090     0.000000    -0.001123     0.168967     0.189576    -0.001123    -0.000592     0.038295
464792.77514   0.8400693021   0.2930642918   275.370764     1.992976     0.083752    -1.554402     0.013222    -0.019619    -0.892281     0.000000    -0.001522     0.211068     0.264886    -0.001522    -0.000292     0.038195
464792.78014   0.8400693031   0.2930642900   275.378568     1.994054     0.082330    -1.556241     0.013225    -0.019623    -0.892463     0.000000    -0.000224     0.213050     0.554384    -0.000224     0.000308     0.032991
464792.78514   0.8400693041   0.2930642882   275.386383     1.995054     0.080898    -1.558886     0.013227    -0.019623    -0.892625     0.000000    -0.000823     0.141662     0.447778    -0.000823    -0.001791     0.030789
464792.79014   0.8400693052   0.2930642864   275.394209     1.995782     0.079155    -1.560544     0.013218    -0.019625    -0.892781     0.000000    -0.000424     0.131895     0.062432    -0.000424    -0.003491     0.032390
464792.79514   0.8400693062   0.2930642849   275.401668     1.996038     0.078207    -1.560822     0.013245    -0.019611    -0.892932     0.000000    -0.000524     0.144802     0.075164    -0.000524    -0.000292     0.028287
464792.80014   0.8400693072   0.2930642831   275.409503     1.996648     0.076720    -1.561914     0.013248    -0.019614    -0.893065     0.000000    -0.001023     0.074412     0.461465    -0.001023     0.001107     0.022983
464792.80514   0.8400693084   0.2930642813   275.416851     1.996272     0.074211    -1.564472     0.013285    -0.019634    -0.893173     0.000000    -0.000823     0.014648     0.424315    -0.000823    -0.002391     0.022983
464792.81014   0.8400693094   0.2930642795   275.424703     1.996280     0.072352    -1.565986     0.013277    -0.019638    -0.893286     0.000000    -0.001522    -0.037140     0.043860    -0.001522    -0.001791     0.021782
464792.81514   0.8400693104   0.2930642777   275.432560     1.996144     0.070635    -1.566257     0.013272    -0.019649    -0.893385     0.000000    -0.003420    -0.018442     0.042884    -0.003420    -0.000692     0.016077
464792.82014   0.8400693114   0.2930642759   275.440420     1.995981     0.068829    -1.567387     0.013264    -0.019664    -0.893459     0.000000    -0.002821    -0.078931     0.539725    -0.002821    -0.003790     0.012174
464792.82514   0.8400693124   0.2930642741   275.448290     1.995589     0.066699    -1.570280     0.013248    -0.019676    -0.893515     0.000000    -0.001722    -0.124789     0.619924    -0.001722    -0.002691     0.008972
464792.83014   0.8400693134   0.2930642723   275.456173     1.994951     0.064517    -1.572628     0.013244    -0.019684    -0.893552     0.000000    -0.001423    -0.162854     0.142648    -0.001423     0.002207     0.004168
464792.83514   0.8400693144   0.2930642705   275.464063     1.994138     0.062277    -1.573239     0.013251    -0.019690    -0.893572     0.000000    -0.000623    -0.166714     0.023329    -0.000623    -0.000192     0.003267
464792.84014   0.8400693154   0.2930642687   275.471957     1.993274     0.059758    -1.574237     0.013246    -0.019691    -0.893591     0.000000     0.000475    -0.198007     0.468331     0.000475    -0.002491     0.004969
464792.84514   0.8400693164   0.2930642669   275.479860     1.992330     0.057308    -1.576779     0.013239    -0.019688    -0.893611     0.000000     0.000875    -0.204883     0.522123     0.000875     0.000208     0.001866
464792.85014   0.8400693174   0.2930642651   275.487773     1.991295     0.055061    -1.578591     0.013243    -0.019685    -0.893615     0.000000     0.000276    -0.226423    -0.004058     0.000276     0.001907    -0.001336
464792.85514   0.8400693184   0.2930642633   275.495690     1.990264     0.052790    -1.578251     0.013246    -0.019685    -0.893610     0.000000    -0.000124    -0.165785    -0.251501    -0.000124    -0.001691     0.000065
464792.86014   0.8400693194   0.2930642614   275.503603     1.989464     0.050660    -1.577577     0.013239    -0.019687    -0.893611     0.000000    -0.000823    -0.148154     0.037018    -0.000823    -0.000992     0.000565
464792.86514   0.8400693204   0.2930642596   275.511516     1.988754     0.048988    -1.577905     0.013238    -0.019694    -0.893613     0.000000    -0.002222    -0.139273     0.080054    -0.002222     0.001307     0.000065
464792.87014   0.8400693214   0.2930642578   275.519428     1.988039     0.047769    -1.577498     0.013239    -0.019705    -0.893618     0.000000    -0.002022    -0.148948    -0.413851    -0.002022    -0.001791     0.002367
464792.87514   0.8400693223   0.2930642560   275.527334     1.987333     0.047002    -1.575057     0.013227    -0.019714    -0.893634     0.000000    -0.001123    -0.111704    -0.636843    -0.001123    -0.004190     0.004869
464792.88014   0.8400693233   0.2930642542   275.535226     1.986831     0.047039    -1.572359     0.013215    -0.019720    -0.893654     0.000000    -0.001422    -0.058827    -0.347346    -0.001422     0.001107     0.002367
464792.88514   0.8400693243   0.2930642524   275.543109     1.986514     0.047826    -1.571010     0.013221    -0.019725    -0.893662     0.000000    -0.000124    -0.053895    -0.111638    -0.000124     0.001207    -0.000135
464792.89014   0.8400693253   0.2930642506   275.550985     1.986214     0.049087    -1.569909     0.013221    -0.019725    -0.893663     0.000000     0.000875    -0.057822    -0.403092     0.000875    -0.002391     0.000766
464792.89515   0.8400693263   0.2930642488   275.558853     1.985901     0.050861    -1.567449     0.013213    -0.019722    -0.893663     0.000000     0.000176    -0.045132    -0.621195     0.000176     0.000008    -0.001236
464792.90014   0.8400693272   0.2930642470   275.566708     1.985639     0.053299    -1.564715     0.013215    -0.019721    -0.893656     0.000000     0.000575    -0.031454    -0.358105     0.000575     0.001307    -0.002037
464792.90514   0.8400693282   0.2930642452   275.574553     1.985474     0.056058    -1.563436     0.013215    -0.019717    -0.893650     0.000000     0.001474    -0.019762    -0.006012     0.001474    -0.002591     0.000866
464792.91014   0.8400693292   0.2930642434   275.582395     1.985337     0.059080    -1.563193     0.013202    -0.019712    -0.893658     0.000000     0.000375    -0.045234    -0.059806     0.000375    -0.002391     0.002567
464792.91514   0.8400693302   0.2930642416   275.590235     1.985144     0.062461    -1.562338     0.013194    -0.019713    -0.893665     0.000000    -0.001422    -0.023691    -0.305294    -0.001422    -0.000492    -0.000836
464792.92014   0.8400693312   0.2930642398   275.598070     1.984969     0.065883    -1.561137     0.013192    -0.019721    -0.893662     0.000000    -0.001522    -0.049043    -0.036333    -0.001522    -0.000392    -0.000135
464792.92514   0.8400693322   0.2930642380   275.605904     1.984796     0.069053    -1.561560     0.013190    -0.019728    -0.893665     0.000000    -0.000723    -0.019643     0.388134    -0.000723    -0.000292     0.002067
464792.93014   0.8400693332   0.2930642362   275.613743     1.984695     0.072231    -1.563425     0.013190    -0.019731    -0.893671     0.000000    -0.000224    -0.047981     0.412585    -0.000224     0.000508    -0.000736
464792.93514   0.8400693342   0.2930642344   275.621591     1.984481     0.075062    -1.564799     0.013190    -0.019730    -0.893665     0.000000     0.001075    -0.051910     0.067340     0.001075    -0.000992    -0.001836
464792.94014   0.8400693352   0.2930642327   275.629444     1.984205     0.077176    -1.565202     0.013183    -0.019726    -0.893661     0.000000     0.000675    -0.070531     0.150472     0.000675    -0.001791     0.000866
464792.94514   0.8400693362   0.2930642309   275.637301     1.983986     0.078824    -1.566353     0.013180    -0.019726    -0.893665     0.000000    -0.001023    -0.008902     0.418452    -0.001023     0.001707     0.000966
464792.95014   0.8400693372   0.2930642291   275.645166     1.983906     0.080125    -1.568403     0.013190    -0.019734    -0.893665     0.000000    -0.002821    -0.055749     0.417478    -0.002821     0.002207    -0.001836
464792.95514   0.8400693382   0.2930642273   275.653040     1.983696     0.080633    -1.569846     0.013196    -0.019746    -0.893659     0.000000    -0.000923    -0.036093     0.049741    -0.000923    -0.000392     0.000265
464792.96014   0.8400693392   0.2930642255   275.660918     1.983539     0.080370    -1.570101     0.013195    -0.019750    -0.893662     0.000000    -0.000224    -0.028238     0.048763    -0.000224     0.000208     0.001266
464792.96514   0.8400693402   0.2930642238   275.668799     1.983473     0.079779    -1.570813     0.013200    -0.019750    -0.893666     0.000000     0.000375     0.011862     0.305987     0.000375     0.002607    -0.000535
464792.97014   0.8400693412   0.2930642220   275.676685     1.983458     0.078681    -1.572528     0.013212    -0.019747    -0.893663     0.000000     0.001474    -0.044905     0.377385     0.001474     0.001707    -0.000135
464792.97514   0.8400693422   0.2930642202   275.684580     1.983278     0.077000    -1.574014     0.013217    -0.019742    -0.893665     0.000000     0.000076    -0.030269     0.093754     0.000076    -0.000492     0.001266
464792.98014   0.8400693432   0.2930642184   275.692479     1.983118     0.075074    -1.574539     0.013214    -0.019745    -0.893668     0.000000    -0.001722    -0.045873     0.086908    -0.001722    -0.000592    -0.000736
464792.98514   0.8400693442   0.2930642166   275.700382     1.982942     0.073041    -1.575587     0.013210    -0.019755    -0.893663     0.000000    -0.002421    -0.035985     0.413573    -0.002421    -0.001092    -0.001636
464792.99015   0.8400693452   0.2930642148   275.708293     1.982756     0.070615    -1.578062     0.013202    -0.019765    -0.893658     0.000000    -0.000823    -0.084803     0.612113    -0.000823    -0.002391    -0.000035
464792.99515   0.8400693461   0.2930642132   275.715931     1.982276     0.068142    -1.580841     0.013201    -0.019769    -0.893659     0.000000    -0.001422    -0.107029     0.434125    -0.001422     0.001107     0.000966
464793.00015   0.8400693471   0.2930642114   275.723868     1.981727     0.065762    -1.582819     0.013210    -0.019777    -0.893661     0.000000    -0.001422    -0.135327     0.265899    -0.001422     0.002807    -0.000836
464793.00514   0.8400693482   0.2930642095   275.731682     1.980426     0.063397    -1.584667     0.013223    -0.019803    -0.893660     0.000000    -0.001722    -0.150900     0.462485    -0.001722    -0.001991     0.002067
464793.01014   0.8400693492   0.2930642077   275.739639     1.979697     0.061319    -1.587332     0.013212    -0.019809    -0.893673     0.000000    -0.000324    -0.174321     0.617014    -0.000324    -0.002391     0.003668
464793.01514   0.8400693502   0.2930642059   275.747609     1.978822     0.059767    -1.590004     0.013209    -0.019811    -0.893685     0.000000    -0.000324    -0.204620     0.349034    -0.000324     0.002307    -0.000035
464793.02014   0.8400693512   0.2930642041   275.755589     1.977754     0.058654    -1.591287     0.013217    -0.019816    -0.893684     0.000000    -0.002022    -0.236834     0.054648    -0.002022     0.000408    -0.000836
464793.02514   0.8400693522   0.2930642023   275.763573     1.976554     0.057908    -1.591853     0.013216    -0.019824    -0.893684     0.000000    -0.000523    -0.255351     0.192551    -0.000523    -0.001591     0.002067
464793.03014   0.8400693531   0.2930642005   275.771561     1.975270     0.057749    -1.592828     0.013212    -0.019827    -0.893693     0.000000    -0.000623    -0.271947     0.184727    -0.000623     0.000608     0.000966
464793.03514   0.8400693541   0.2930641987   275.779553     1.973830     0.058110    -1.593172     0.013211    -0.019831    -0.893695     0.000000    -0.000723    -0.317878    -0.143891    -0.000723    -0.001491    -0.000636
464793.04014   0.8400693551   0.2930641970   275.787542     1.972144     0.058529    -1.592084     0.013196    -0.019836    -0.893694     0.000000    -0.001223    -0.366729    -0.343410    -0.001223    -0.005690     0.000665
464793.04514   0.8400693561   0.2930641952   275.795526     1.970313     0.059165    -1.590670     0.013176    -0.019841    -0.893697     0.000000    -0.000623    -0.365702    -0.164432    -0.000623    -0.000992    -0.000235
464793.05014   0.8400693571   0.2930641934   275.803504     1.968464     0.060244    -1.590014     0.013176    -0.019845    -0.893693     0.000000    -0.000623    -0.371536    -0.070540    -0.000623     0.001907    -0.001836
464793.05514   0.8400693581   0.2930641916   275.811480     1.966592     0.061425    -1.589456     0.013180    -0.019849    -0.893686     0.000000    -0.001123    -0.374423    -0.183012    -0.001123    -0.001291    -0.000135
464793.06014   0.8400693590   0.2930641898   275.819452     1.964737     0.062507    -1.588441     0.013172    -0.019852    -0.893689     0.000000     0.000475    -0.361689    -0.230936     0.000475    -0.001891     0.002067
464793.06515   0.8400693600   0.2930641880   275.827420     1.962957     0.063862    -1.587568     0.013167    -0.019851    -0.893695     0.000000    -0.000124    -0.341157    -0.064671    -0.000124     0.000308    -0.001036
464793.07014   0.8400693610   0.2930641863   275.835385     1.961223     0.065390    -1.587459     0.013165    -0.019854    -0.893688     0.000000    -0.000823    -0.358733     0.068342    -0.000823    -0.001491    -0.002137
464793.07514   0.8400693620   0.2930641845   275.843351     1.959538     0.066617    -1.587789     0.013152    -0.019858    -0.893680     0.000000    -0.000523    -0.318596     0.080078    -0.000523    -0.004290    -0.000736
464793.08014   0.8400693630   0.2930641827   275.851319     1.958046     0.067685    -1.588229     0.013135    -0.019862    -0.893673     0.000000    -0.001123    -0.286276     0.123110    -0.001123    -0.001991    -0.002637
464793.08514   0.8400693639   0.2930641810   275.859291     1.956745     0.068772    -1.589041     0.013129    -0.019869    -0.893661     0.000000    -0.001522    -0.236326     0.248299    -0.001522     0.000408    -0.001836
464793.09014   0.8400693649   0.2930641792   275.867268     1.955705     0.069687    -1.590313     0.013127    -0.019873    -0.893660     0.000000     0.000575    -0.181530     0.275684     0.000575    -0.001991     0.002767
464793.09514   0.8400693659   0.2930641774   275.875251     1.955056     0.070379    -1.591448     0.013116    -0.019873    -0.893673     0.000000    -0.000523    -0.064165     0.152451    -0.000523    -0.002291     0.002167
464793.10014   0.8400693669   0.2930641757   275.883239     1.954896     0.071037    -1.592247     0.013112    -0.019880    -0.893675     0.000000    -0.002521     0.005354     0.192551    -0.002521     0.001507    -0.003238
464793.10514   0.8400693679   0.2930641739   275.891232     1.955086     0.071502    -1.593252     0.013118    -0.019890    -0.893658     0.000000    -0.001223     0.078804     0.230697    -0.001223     0.000708    -0.003438
464793.11014   0.8400693688   0.2930641722   275.899230     1.955613     0.071749    -1.594291     0.013121    -0.019894    -0.893646     0.000000     0.000675     0.138483     0.177884     0.000675     0.000508    -0.000535
464793.11515   0.8400693698   0.2930641704   275.907232     1.956485     0.072018    -1.594973     0.013127    -0.019891    -0.893643     0.000000     0.000276     0.234310     0.070301     0.000276     0.002507    -0.000435
464793.12014   0.8400693708   0.2930641686   275.915237     1.957735     0.072313    -1.595576     0.013137    -0.019892    -0.893645     0.000000    -0.000623     0.278334     0.224832    -0.000623     0.001507     0.001866
464793.12514   0.8400693718   0.2930641669   275.923248     1.959266     0.072537    -1.596908     0.013142    -0.019891    -0.893659     0.000000     0.001574     0.344818     0.359801     0.001574    -0.000192     0.005269
464793.13014   0.8400693728   0.2930641651   275.931265     1.961045     0.072892    -1.598407     0.013149    -0.019885    -0.893681     0.000000     0.000975     0.368230     0.208205     0.000975     0.003906     0.002567
464793.13514   0.8400693738   0.2930641633   275.939287     1.962973     0.073350    -1.598893     0.013170    -0.019884    -0.893688     0.000000    -0.001223     0.427899    -0.090093    -0.001223     0.004506    -0.000736
464793.14014   0.8400693748   0.2930641616   275.947310     1.965055     0.073529    -1.598771     0.013185    -0.019891    -0.893685     0.000000    -0.001422     0.407429     0.117253    -0.001422     0.000608    -0.000135
464793.14514   0.8400693757   0.2930641598   275.955335     1.967116     0.073574    -1.599582     0.013190    -0.019896    -0.893686     0.000000     0.000376     0.414304     0.268850     0.000376     0.001807     0.000966
464793.15014   0.8400693767   0.2930641580   275.963364     1.969078     0.073850    -1.600357     0.013200    -0.019895    -0.893688     0.000000    -0.000324     0.353669    -0.032383    -0.000324     0.002307    -0.000836
464793.15514   0.8400693777   0.2930641562   275.971393     1.970798     0.074039    -1.599676     0.013203    -0.019898    -0.893688     0.000000    -0.000523     0.338044    -0.302319    -0.000523    -0.002391     0.001866
464793.16014   0.8400693787   0.2930641545   275.979417     1.972434     0.073941    -1.598488     0.013193    -0.019897    -0.893703     0.000000     0.001474     0.317484    -0.092044     0.001474    -0.001791     0.005069
464793.16514   0.8400693797   0.2930641527   275.987438     1.973959     0.074103    -1.598174     0.013193    -0.019892    -0.893724     0.000000     0.000475     0.292008     0.008693     0.000475     0.003007     0.002567
464793.17015   0.8400693807   0.2930641509   275.995456     1.975259     0.074485    -1.597493     0.013207    -0.019891    -0.893734     0.000000    -0.000324     0.221588    -0.391321    -0.000324     0.002307     0.000665
464793.17514   0.8400693817   0.2930641491   276.003466     1.976242     0.074731    -1.594844     0.013208    -0.019892    -0.893736     0.000000    -0.000024     0.185412    -0.767864    -0.000024    -0.003291     0.000365
464793.18014   0.8400693827   0.2930641474   276.011461     1.977024     0.074865    -1.591334     0.013195    -0.019895    -0.893734     0.000000    -0.000923     0.136537    -0.553676    -0.000923    -0.001491    -0.002337
464793.18514   0.8400693837   0.2930641456   276.019441     1.977485     0.075214    -1.589128     0.013191    -0.019902    -0.893720     0.000000    -0.002222     0.029037    -0.210385    -0.002222     0.000708    -0.003838
464793.19014   0.8400693847   0.2930641438   276.027413     1.977491     0.075562    -1.587541     0.013190    -0.019911    -0.893709     0.000000    -0.000823    -0.038368    -0.499881    -0.000823    -0.001891     0.001166
464793.19514   0.8400693854   0.2930641422   276.035635     1.976083     0.075362    -1.584454     0.013158    -0.019868    -0.893722     0.000000     0.000076    -0.087642    -0.829491     0.000076    -0.001291     0.004368
464793.20014   0.8400693864   0.2930641404   276.043576     1.975588     0.076075    -1.580521     0.013157    -0.019870    -0.893739     0.000000    -0.000723    -0.075953    -0.701368    -0.000723     0.001407     0.001466
464793.20515   0.8400693873   0.2930641388   276.051230     1.975711     0.077267    -1.577903     0.013148    -0.019827    -0.893746     0.000000     0.001175    -0.151621    -0.230942     0.001175    -0.001291     0.000365
464793.21014   0.8400693883   0.2930641370   276.059144     1.974870     0.078147    -1.576533     0.013141    -0.019821    -0.893748     0.000000     0.001374    -0.181022    -0.336572     0.001374    -0.001591    -0.000035
464793.21514   0.8400693893   0.2930641352   276.067049     1.973843     0.079245    -1.574171     0.013141    -0.019818    -0.893744     0.000000    -0.000424    -0.216251    -0.691598    -0.000424     0.002107    -0.002237
464793.22014   0.8400693902   0.2930641334   276.074940     1.972750     0.080514    -1.570794     0.013147    -0.019822    -0.893733     0.000000    -0.001223    -0.189800    -0.636826    -0.001223     0.000008    -0.002137
464793.22514   0.8400693912   0.2930641317   276.082817     1.971768     0.081757    -1.568529     0.013141    -0.019826    -0.893728     0.000000     0.000276    -0.192705    -0.123359     0.000276    -0.002891     0.001566
464793.23015   0.8400693922   0.2930641299   276.090687     1.970832     0.083266    -1.567894     0.013134    -0.019823    -0.893738     0.000000     0.001374    -0.179051    -0.111625     0.001374     0.000908     0.002667
464793.23514   0.8400693932   0.2930641281   276.098552     1.969947     0.085219    -1.566426     0.013141    -0.019821    -0.893748     0.000000    -0.000923    -0.156566    -0.580102    -0.000923     0.002007     0.000365
464793.24014   0.8400693942   0.2930641264   276.106406     1.969253     0.087229    -1.563309     0.013144    -0.019827    -0.893751     0.000000    -0.001323    -0.086090    -0.663232    -0.001323    -0.001591     0.001666
464793.24515   0.8400693952   0.2930641246   276.114246     1.969008     0.089224    -1.560659     0.013138    -0.019830    -0.893759     0.000000     0.000575     0.021515    -0.260283     0.000575    -0.001092     0.001266
464793.25015   0.8400693962   0.2930641228   276.122076     1.969168     0.091380    -1.559520     0.013141    -0.019826    -0.893759     0.000000     0.001474     0.058632    -0.133140     0.001474     0.003406    -0.002837
464793.25515   0.8400693972   0.2930641211   276.129900     1.969499     0.093460    -1.557908     0.013151    -0.019817    -0.893746     0.000000     0.002573     0.101573    -0.612376     0.002573     0.000008    -0.001636
464793.26014   0.8400693982   0.2930641193   276.137711     1.970036     0.095259    -1.554488     0.013148    -0.019807    -0.893744     0.000000     0.001374     0.152337    -0.766907     0.001374    -0.001791     0.001966
464793.26515   0.8400693993   0.2930641176   276.145506     1.970982     0.097120    -1.551177     0.013149    -0.019801    -0.893756     0.000000     0.000875     0.279428    -0.440246     0.000875     0.003506     0.003167
464793.27014   0.8400694003   0.2930641158   276.153288     1.972404     0.099126    -1.549442     0.013163    -0.019797    -0.893767     0.000000     0.001175     0.318501    -0.145857     0.001175     0.001507     0.000565
464793.27514   0.8400694013   0.2930641141   276.161063     1.974097     0.100821    -1.548117     0.013162    -0.019791    -0.893770     0.000000     0.001275     0.382994    -0.417750     0.001275    -0.002991     0.000565
464793.28014   0.8400694023   0.2930641123   276.168829     1.976091     0.102166    -1.545547     0.013149    -0.019789    -0.893770     0.000000    -0.000523     0.441660    -0.619227    -0.000523    -0.001791    -0.001436
464793.28514   0.8400694033   0.2930641105   276.176581     1.978409     0.103409    -1.542821     0.013150    -0.019794    -0.893761     0.000000    -0.001422     0.521911    -0.362005    -0.001422     0.003406    -0.002637
464793.29014   0.8400694043   0.2930641088   276.184324     1.981047     0.104354    -1.541623     0.013157    -0.019797    -0.893751     0.000000     0.000975     0.550290     0.017475     0.000975    -0.001591    -0.000135
464793.29514   0.8400694053   0.2930641070   276.192063     1.983858     0.104868    -1.541403     0.013146    -0.019794    -0.893754     0.000000     0.000076     0.575697    -0.098914     0.000076    -0.003590     0.001766
464793.30014   0.8400694063   0.2930641053   276.199799     1.986802     0.105079    -1.540288     0.013137    -0.019799    -0.893761     0.000000    -0.002521     0.612924    -0.386457    -0.002521     0.001008     0.000365
464793.30515   0.8400694074   0.2930641035   276.207529     1.989900     0.105046    -1.538649     0.013142    -0.019808    -0.893765     0.000000    -0.000623     0.646258    -0.187913    -0.000623     0.001008     0.001666
464793.31014   0.8400694084   0.2930641017   276.215253     1.993191     0.104761    -1.538311     0.013145    -0.019809    -0.893778     0.000000     0.001075     0.682435     0.171026     0.001075    -0.000192     0.004669
464793.31515   0.8400694094   0.2930640999   276.222979     1.996632     0.104482    -1.538999     0.013146    -0.019806    -0.893794     0.000000    -0.000024     0.692192     0.111365    -0.000024     0.000608     0.000565
464793.32015   0.8400694104   0.2930640982   276.230706     2.000017     0.104159    -1.538913     0.013149    -0.019810    -0.893794     0.000000    -0.002022     0.653125    -0.205518    -0.002022     0.000708    -0.001536
464793.32515   0.8400694115   0.2930640964   276.238430     2.003234     0.103578    -1.537772     0.013148    -0.019820    -0.893792     0.000000    -0.001622     0.634635    -0.232901    -0.001622    -0.001591     0.001866
464793.33015   0.8400694125   0.2930640946   276.246149     2.006426     0.103042    -1.536905     0.013145    -0.019829    -0.893802     0.000000    -0.002222     0.647446    -0.033381    -0.002222     0.000608     0.002167
464793.33514   0.8400694135   0.2930640928   276.253865     2.009575     0.102719    -1.536650     0.013151    -0.019839    -0.893808     0.000000    -0.001422     0.602550    -0.049027    -0.001422     0.002407    -0.000535
464793.34015   0.8400694145   0.2930640910   276.261578     2.012468     0.102353    -1.535760     0.013157    -0.019845    -0.893808     0.000000    -0.000623     0.548811    -0.375688    -0.000623    -0.001092     0.001466
464793.34515   0.8400694156   0.2930640892   276.269284     2.015123     0.101895    -1.533587     0.013150    -0.019851    -0.893817     0.000000    -0.001722     0.519529    -0.505767    -0.001722    -0.001591     0.002267
464793.35015   0.8400694166   0.2930640874   276.276978     2.017649     0.101724    -1.531253     0.013148    -0.019861    -0.893824     0.000000    -0.002122     0.501044    -0.362972    -0.002122     0.001607    -0.000435
464793.35515   0.8400694176   0.2930640856   276.284662     2.020087     0.101653    -1.529358     0.013152    -0.019873    -0.893820     0.000000    -0.002721     0.481606    -0.372750    -0.002721    -0.000892    -0.001736
464793.36015   0.8400694187   0.2930640838   276.292336     2.022386     0.101328    -1.527162     0.013143    -0.019887    -0.893814     0.000000    -0.002621     0.433817    -0.516520    -0.002621    -0.003191     0.000065
464793.36515   0.8400694197   0.2930640820   276.299998     2.024458     0.101005    -1.524351     0.013132    -0.019899    -0.893814     0.000000    -0.002022     0.398725    -0.605519    -0.002022    -0.000592    -0.000035
464793.37014   0.8400694207   0.2930640802   276.307646     2.026331     0.100936    -1.521508     0.013132    -0.019907    -0.893814     0.000000    -0.000224     0.361619    -0.476417    -0.000224     0.001307    -0.000135
464793.37514   0.8400694218   0.2930640784   276.315281     2.028079     0.100885    -1.519376     0.013133    -0.019907    -0.893817     0.000000     0.000475     0.352814    -0.317976     0.000475    -0.001891     0.001966
464793.38015   0.8400694228   0.2930640766   276.322907     2.029771     0.100743    -1.517936     0.013127    -0.019905    -0.893824     0.000000     0.000276     0.325414    -0.213328     0.000276    -0.000192     0.000165
464793.38515   0.8400694238   0.2930640748   276.330527     2.031339     0.100709    -1.516733     0.013131    -0.019906    -0.893821     0.000000    -0.000823     0.306849    -0.272987    -0.000823     0.002507    -0.002137
464793.39015   0.8400694249   0.2930640730   276.338141     2.032821     0.100610    -1.515584     0.013137    -0.019912    -0.893816     0.000000    -0.001422     0.290281    -0.137039    -0.001422    -0.001192     0.001266
464793.39515   0.8400694261   0.2930640712   276.346326     2.034956     0.101523    -1.515269     0.013166    -0.019936    -0.893828     0.000000     0.000076     0.351150    -0.000108     0.000076    -0.002391     0.004669
464793.40015   0.8400694271   0.2930640694   276.353935     2.036770     0.101507    -1.515390     0.013158    -0.019933    -0.893847     0.000000     0.001774     0.375554     0.088904     0.001774    -0.000592     0.001866
464793.40515   0.8400694284   0.2930640677   276.361766     2.038046     0.100409    -1.515733     0.013202    -0.019942    -0.893837     0.000000     0.001175     0.366874     0.074231     0.001175    -0.003291     0.001566
464793.41014   0.8400694294   0.2930640659   276.369377     2.039957     0.100258    -1.516022     0.013180    -0.019937    -0.893848     0.000000     0.000775     0.389323     0.064446     0.000775    -0.006389     0.003668
464793.41514   0.8400694305   0.2930640641   276.376990     2.042003     0.100254    -1.516250     0.013160    -0.019938    -0.893864     0.000000    -0.001622     0.422599     0.054663    -0.001622    -0.000592     0.001666
464793.42015   0.8400694315   0.2930640623   276.384603     2.044250     0.100356    -1.516389     0.013161    -0.019949    -0.893867     0.000000    -0.002721     0.479435     0.018478    -0.002721     0.001507    -0.001536
464793.42515   0.8400694326   0.2930640605   276.392218     2.046671     0.100193    -1.516500     0.013162    -0.019962    -0.893863     0.000000    -0.002222     0.484451     0.061514    -0.002222    -0.001591     0.000665
464793.43015   0.8400694336   0.2930640586   276.399833     2.049253     0.099882    -1.516584     0.013155    -0.019970    -0.893871     0.000000    -0.000823     0.551034    -0.020640    -0.000823    -0.001391     0.003668
464793.43514   0.8400694347   0.2930640568   276.407447     2.052046     0.099894    -1.516254     0.013154    -0.019976    -0.893886     0.000000    -0.001422     0.571629    -0.102794    -0.001422     0.001607     0.001266
464793.44015   0.8400694357   0.2930640550   276.415059     2.055036     0.099938    -1.515686     0.013159    -0.019983    -0.893891     0.000000    -0.000923     0.640152    -0.094968    -0.000923    -0.000292     0.000866
464793.44515   0.8400694368   0.2930640532   276.422670     2.058239     0.099747    -1.515515     0.013152    -0.019987    -0.893893     0.000000    -0.000723     0.638240     0.106506    -0.000723    -0.002791    -0.000435
464793.45014   0.8400694378   0.2930640513   276.430281     2.061495     0.099493    -1.515886     0.013144    -0.019991    -0.893887     0.000000    -0.000623     0.659795     0.064451    -0.000623     0.000008    -0.003137
464793.45514   0.8400694389   0.2930640495   276.437893     2.064727     0.099244    -1.515971     0.013144    -0.019995    -0.893872     0.000000    -0.000823     0.626583    -0.023572    -0.000823     0.000208    -0.002537
464793.46015   0.8400694399   0.2930640476   276.445506     2.067954     0.098812    -1.515987     0.013139    -0.019999    -0.893863     0.000000    -0.000224     0.667691     0.083033    -0.000224    -0.002691    -0.000235
464793.46514   0.8400694410   0.2930640458   276.453121     2.071323     0.098265    -1.516923     0.013132    -0.020003    -0.893864     0.000000    -0.001822     0.667745     0.395025    -0.001822     0.000608     0.000465
464793.47015   0.8400694420   0.2930640439   276.460744     2.074685     0.097808    -1.518902     0.013139    -0.020013    -0.893864     0.000000    -0.001922     0.659039     0.428281    -0.001922     0.002607    -0.000535
464793.47515   0.8400694431   0.2930640421   276.468376     2.077910     0.097216    -1.520673     0.013144    -0.020021    -0.893865     0.000000    -0.000923     0.607275     0.260062    -0.000923    -0.001491     0.001866
464793.48015   0.8400694441   0.2930640402   276.476015     2.081057     0.096509    -1.521777     0.013137    -0.020027    -0.893876     0.000000    -0.001123     0.644493     0.188665    -0.001123    -0.001691     0.002567
464793.48515   0.8400694452   0.2930640384   276.483660     2.084195     0.095805    -1.523073     0.013133    -0.020033    -0.893883     0.000000    -0.001223     0.585873     0.404811    -0.001223     0.000808    -0.000836
464793.49015   0.8400694463   0.2930640365   276.491312     2.087040     0.095008    -1.524924     0.013133    -0.020041    -0.893880     0.000000    -0.002122     0.521409     0.337328    -0.002122    -0.001491    -0.000435
464793.49514   0.8400694473   0.2930640346   276.498973     2.089569     0.094062    -1.525990     0.013124    -0.020053    -0.893881     0.000000    -0.002321     0.461860     0.034138    -0.002321    -0.001991     0.001866
464793.50014   0.8400694484   0.2930640328   276.506635     2.091863     0.093330    -1.525724     0.013121    -0.020064    -0.893887     0.000000    -0.001922     0.451209    -0.174180    -0.001922     0.001307    -0.000435
464793.50515   0.8400694495   0.2930640309   276.514295     2.093973     0.092599    -1.525053     0.013126    -0.020071    -0.893884     0.000000    -0.000324     0.386719    -0.056814    -0.000324     0.000808    -0.001136
464793.51015   0.8400694505   0.2930640290   276.521952     2.095777     0.091591    -1.524797     0.013124    -0.020073    -0.893882     0.000000    -0.000424     0.322190    -0.036276    -0.000424    -0.002591     0.001566
464793.51515   0.8400694516   0.2930640272   276.529607     2.097231     0.090587    -1.524005     0.013119    -0.020078    -0.893892     0.000000    -0.001522     0.247909    -0.356092    -0.001522     0.001307     0.002467
464793.52015   0.8400694526   0.2930640253   276.537254     2.098363     0.089942    -1.521743     0.013129    -0.020086    -0.893898     0.000000    -0.001822     0.221587    -0.615267    -0.001822     0.003506    -0.001036
464793.52514   0.8400694537   0.2930640234   276.544889     2.099267     0.089289    -1.519157     0.013139    -0.020091    -0.893892     0.000000     0.000675     0.150224    -0.359021     0.000675    -0.000792    -0.001636
464793.53014   0.8400694548   0.2930640215   276.552514     2.099901     0.088442    -1.517910     0.013136    -0.020088    -0.893885     0.000000     0.000575     0.103253    -0.074415     0.000575     0.000008    -0.000636
464793.53515   0.8400694558   0.2930640196   276.560134     2.100263     0.087841    -1.517162     0.013142    -0.020087    -0.893882     0.000000    -0.000124     0.035761    -0.288603    -0.000124     0.003107    -0.000736
464793.54015   0.8400694569   0.2930640178   276.567748     2.100326     0.087575    -1.515289     0.013152    -0.020091    -0.893882     0.000000    -0.001223     0.001565    -0.529197    -0.001223     0.000408     0.001866
464793.54515   0.8400694580   0.2930640159   276.575351     2.100372     0.087425    -1.513070     0.013148    -0.020096    -0.893894     0.000000    -0.000623     0.040734    -0.295447    -0.000623    -0.003091     0.003268
464793.55014   0.8400694590   0.2930640140   276.582947     2.100560     0.087431    -1.512230     0.013139    -0.020099    -0.893907     0.000000    -0.000523     0.033919     0.058600    -0.000523     0.000208     0.000866
464793.55515   0.8400694601   0.2930640121   276.590541     2.100701     0.087683    -1.512199     0.013139    -0.020101    -0.893908     0.000000    -0.000024     0.017309    -0.107665    -0.000024    -0.000192    -0.000836
464793.56015   0.8400694612   0.2930640102   276.598132     2.100748     0.088015    -1.511144     0.013134    -0.020099    -0.893907     0.000000     0.001175     0.004570    -0.374669     0.001175    -0.002491     0.000766
464793.56514   0.8400694622   0.2930640083   276.605716     2.100839     0.088437    -1.509450     0.013126    -0.020097    -0.893910     0.000000    -0.000523     0.055415    -0.263175    -0.000523    -0.000092     0.000265
464793.57014   0.8400694633   0.2930640065   276.613294     2.101182     0.088984    -1.508568     0.013130    -0.020101    -0.893909     0.000000    -0.000823     0.099463    -0.014753    -0.000823     0.001907    -0.001036
464793.57514   0.8400694643   0.2930640046   276.620869     2.101685     0.089508    -1.508238     0.013133    -0.020101    -0.893908     0.000000     0.001275     0.107280    -0.138963     0.001275    -0.001291     0.001866
464793.58015   0.8400694654   0.2930640027   276.628440     2.102290     0.090021    -1.506822     0.013126    -0.020095    -0.893918     0.000000     0.001374     0.159053    -0.508661     0.001374    -0.001891     0.002067
464793.58515   0.8400694665   0.2930640008   276.636000     2.103131     0.090724    -1.504183     0.013119    -0.020091    -0.893921     0.000000     0.000276     0.212807    -0.533114     0.000276    -0.000292    -0.002437
464793.59015   0.8400694676   0.2930639989   276.643549     2.104208     0.091378    -1.501974     0.013116    -0.020092    -0.893909     0.000000    -0.000523     0.243137    -0.255353    -0.000523    -0.001192    -0.002737
464793.59515   0.8400694687   0.2930639970   276.650526     2.106312     0.092570    -1.500431     0.013122    -0.020125    -0.893900     0.000000    -0.000523     0.269039    -0.219168    -0.000523    -0.002691     0.000065
464793.60015   0.8400694698   0.2930639951   276.658058     2.107675     0.093051    -1.498681     0.013117    -0.020129    -0.893898     0.000000    -0.001123     0.293558    -0.527223    -0.001123     0.001407    -0.001436
464793.60514   0.8400694711   0.2930639932   276.665253     2.108103     0.093200    -1.496048     0.013158    -0.020176    -0.893876     0.000000    -0.001522     0.305618    -0.569279    -0.001522     0.002907    -0.003438
464793.61015   0.8400694722   0.2930639913   276.672763     2.109645     0.093501    -1.493820     0.013168    -0.020183    -0.893866     0.000000    -0.000623     0.338929    -0.233811    -0.000623     0.000708     0.001066
464793.61515   0.8400694732   0.2930639894   276.680264     2.111320     0.093829    -1.493021     0.013173    -0.020188    -0.893873     0.000000    -0.001722     0.341923    -0.019621    -0.001722     0.001207     0.002467
464793.62015   0.8400694743   0.2930639875   276.687762     2.113074     0.094505    -1.492274     0.013180    -0.020199    -0.893883     0.000000    -0.002721     0.373331    -0.316940    -0.002721     0.001807     0.000966
464793.62515   0.8400694754   0.2930639857   276.695254     2.114936     0.095214    -1.490496     0.013184    -0.020209    -0.893888     0.000000    -0.000523     0.391018    -0.377575    -0.000523    -0.000792     0.000966
464793.63015   0.8400694765   0.2930639838   276.702738     2.116965     0.095781    -1.489202     0.013177    -0.020210    -0.893892     0.000000     0.000575     0.436988    -0.033308     0.000575    -0.002191     0.000766
464793.63515   0.8400694775   0.2930639819   276.710220     2.119180     0.096415    -1.489500     0.013172    -0.020209    -0.893892     0.000000    -0.000224     0.448720     0.246408    -0.000224     0.000508    -0.001636
464793.64015   0.8400694786   0.2930639800   276.717705     2.121310     0.097165    -1.490421     0.013174    -0.020212    -0.893886     0.000000    -0.000923     0.391048     0.126111    -0.000923     0.000408    -0.000435
464793.64515   0.8400694797   0.2930639781   276.725194     2.123307     0.097980    -1.490666     0.013167    -0.020217    -0.893889     0.000000    -0.000823     0.405765    -0.024506    -0.000823    -0.003990     0.002367
464793.65015   0.8400694808   0.2930639762   276.732684     2.125421     0.099025    -1.490962     0.013151    -0.020223    -0.893899     0.000000    -0.001822     0.434195     0.252276    -0.001822    -0.002291     0.001466
464793.65515   0.8400694819   0.2930639743   276.740179     2.127629     0.100165    -1.492590     0.013142    -0.020233    -0.893904     0.000000    -0.001922     0.428422     0.501675    -0.001922    -0.001192    -0.000535
464793.66015   0.8400694829   0.2930639724   276.747683     2.129786     0.101140    -1.494573     0.013135    -0.020240    -0.893906     0.000000    -0.000623     0.411861     0.284552    -0.000623    -0.001391     0.002767
464793.66515   0.8400694840   0.2930639705   276.755195     2.131856     0.102039    -1.495348     0.013132    -0.020244    -0.893919     0.000000    -0.000923     0.409945    -0.002989    -0.000923     0.000208     0.001967
464793.67015   0.8400694851   0.2930639686   276.762708     2.133830     0.103074    -1.495352     0.013138    -0.020250    -0.893924     0.000000    -0.001223     0.378703     0.048848    -0.001223     0.002507    -0.000936
464793.67515   0.8400694862   0.2930639667   276.770223     2.135732     0.103906    -1.495693     0.013141    -0.020257    -0.893922     0.000000    -0.001622     0.380733     0.139807    -0.001622    -0.002291     0.000666
464793.68015   0.8400694873   0.2930639648   276.777740     2.137570     0.104437    -1.496203     0.013128    -0.020264    -0.893931     0.000000    -0.001023     0.337767     0.088949    -0.001023    -0.003091     0.003968
464793.68515   0.8400694884   0.2930639629   276.785257     2.139306     0.105000    -1.495935     0.013121    -0.020271    -0.893946     0.000000    -0.001622     0.361305    -0.239670    -0.001622     0.001307     0.000866
464793.69015   0.8400694895   0.2930639610   276.792771     2.141005     0.105591    -1.494672     0.013126    -0.020279    -0.893946     0.000000    -0.001522     0.326177    -0.239667    -0.001522     0.000508    -0.001736
464793.69514   0.8400694906   0.2930639591   276.800280     2.142638     0.105854    -1.493782     0.013124    -0.020283    -0.893939     0.000000     0.000775     0.336959    -0.049928     0.000775    -0.002091    -0.000235
464793.70015   0.8400694917   0.2930639572   276.807786     2.144246     0.105916    -1.493580     0.013119    -0.020280    -0.893937     0.000000     0.000675     0.303674    -0.002984     0.000675     0.000708    -0.001036
464793.70514   0.8400694928   0.2930639553   276.815291     2.145630     0.105930    -1.493253     0.013125    -0.020280    -0.893930     0.000000    -0.000723     0.248910    -0.153600    -0.000723     0.002107    -0.002337
464793.71015   0.8400694939   0.2930639533   276.822793     2.146759     0.105709    -1.492636     0.013124    -0.020283    -0.893923     0.000000    -0.000424     0.200041    -0.062643    -0.000424    -0.003391     0.000966
464793.71515   0.8400694950   0.2930639514   276.830295     2.147786     0.105287    -1.492822     0.013110    -0.020285    -0.893931     0.000000    -0.000124     0.205925     0.214139    -0.000124    -0.002091     0.002767
464793.72015   0.8400694961   0.2930639495   276.837800     2.148781     0.104901    -1.494053     0.013106    -0.020286    -0.893940     0.000000    -0.000124     0.175615     0.305096    -0.000124     0.001107    -0.000535
464793.72515   0.8400694972   0.2930639476   276.845312     2.149575     0.104467    -1.495374     0.013108    -0.020287    -0.893936     0.000000    -0.000024     0.122810     0.198491    -0.000024    -0.000792    -0.001036
464793.73015   0.8400694983   0.2930639457   276.852829     2.150132     0.103918    -1.496421     0.013102    -0.020286    -0.893934     0.000000     0.000875     0.081715     0.226852     0.000875    -0.001791     0.000766
464793.73515   0.8400694994   0.2930639438   276.860352     2.150516     0.103573    -1.497771     0.013099    -0.020283    -0.893940     0.000000     0.000076     0.056266     0.337369     0.000076     0.001107     0.001766
464793.74015   0.8400695005   0.2930639419   276.867883     2.150818     0.103406    -1.499407     0.013102    -0.020289    -0.893949     0.000000    -0.002721     0.050466     0.311942    -0.002721    -0.000292     0.002067
464793.74515   0.8400695016   0.2930639399   276.875422     2.151077     0.103243    -1.500862     0.013092    -0.020301    -0.893958     0.000000    -0.001622     0.028080     0.272821    -0.001622    -0.004790     0.001366
464793.75015   0.8400695027   0.2930639380   276.882967     2.151249     0.103246    -1.502112     0.013074    -0.020305    -0.893963     0.000000     0.000475     0.018331     0.232721     0.000475    -0.001791    -0.000335
464793.75514   0.8400695038   0.2930639361   276.890519     2.151321     0.103500    -1.503230     0.013074    -0.020306    -0.893957     0.000000    -0.000823    -0.003173     0.215116    -0.000823     0.002807    -0.002737
464793.76014   0.8400695049   0.2930639342   276.898075     2.151342     0.103675    -1.504251     0.013082    -0.020311    -0.893949     0.000000    -0.001422     0.008623     0.186756    -0.001422     0.000008     0.000465
464793.76515   0.8400695060   0.2930639323   276.905637     2.151515     0.103803    -1.505240     0.013079    -0.020318    -0.893953     0.000000    -0.000723     0.061493     0.226856    -0.000723    -0.001791     0.001666
464793.77015   0.8400695071   0.2930639304   276.913204     2.151910     0.104193    -1.506232     0.013073    -0.020322    -0.893958     0.000000    -0.001123     0.091860     0.172086    -0.001123    -0.000092    -0.000535
464793.77515   0.8400695082   0.2930639284   276.920776     2.152407     0.104593    -1.506947     0.013071    -0.020327    -0.893957     0.000000    -0.000324     0.102658     0.113405    -0.000324    -0.000792     0.000666
464793.78014   0.8400695093   0.2930639265   276.928350     2.153096     0.104750    -1.507514     0.013068    -0.020325    -0.893964     0.000000     0.001574     0.190652     0.126118     0.001574    -0.000592     0.002967
464793.78515   0.8400695104   0.2930639246   276.935929     2.154139     0.104931    -1.508480     0.013072    -0.020318    -0.893975     0.000000     0.001374     0.236550     0.309988     0.001374     0.002807     0.000465
464793.79015   0.8400695115   0.2930639227   276.943514     2.155411     0.105239    -1.510017     0.013081    -0.020312    -0.893974     0.000000     0.001075     0.277572     0.311944     0.001075     0.000208    -0.001736
464793.79515   0.8400695125   0.2930639208   276.950983     2.157302     0.105643    -1.511313     0.013071    -0.020316    -0.893970     0.000000     0.000475     0.296417     0.228809     0.000475    -0.003890     0.001166
464793.80015   0.8400695136   0.2930639188   276.958581     2.158982     0.105657    -1.512330     0.013060    -0.020318    -0.893978     0.000000    -0.001223     0.377607     0.193610    -0.001223     0.000108     0.001967
464793.80515   0.8400695149   0.2930639169   276.966184     2.160439     0.105672    -1.513653     0.013086    -0.020350    -0.893975     0.000000    -0.001722     0.420799     0.389217    -0.001722     0.002607    -0.000736
464793.81015   0.8400695160   0.2930639150   276.973796     2.162583     0.105801    -1.515768     0.013091    -0.020356    -0.893973     0.000000    -0.000424     0.422811     0.499737    -0.000424    -0.000892     0.000565
464793.81515   0.8400695171   0.2930639131   276.981420     2.164760     0.105836    -1.517817     0.013085    -0.020357    -0.893979     0.000000     0.000376     0.432595     0.305107     0.000376    -0.001991     0.002167
464793.82015   0.8400695182   0.2930639111   276.989051     2.167074     0.106003    -1.518967     0.013081    -0.020356    -0.893987     0.000000    -0.000024     0.493227     0.148621    -0.000024     0.000808     0.000065
464793.82515   0.8400695193   0.2930639092   276.996688     2.169571     0.106160    -1.520169     0.013083    -0.020357    -0.893989     0.000000    -0.000324     0.501064     0.408778    -0.000324    -0.000092     0.001666
464793.83015   0.8400695204   0.2930639073   277.004334     2.172153     0.106323    -1.522453     0.013078    -0.020358    -0.894001     0.000000     0.000076     0.515742     0.565263     0.000076    -0.002291     0.003468
464793.83515   0.8400695215   0.2930639053   277.011991     2.174739     0.106713    -1.524598     0.013072    -0.020360    -0.894014     0.000000    -0.000623     0.500110     0.265006    -0.000623     0.000208     0.000966
464793.84015   0.8400695226   0.2930639034   277.019655     2.177168     0.107255    -1.525457     0.013073    -0.020364    -0.894017     0.000000    -0.000923     0.463963     0.070378    -0.000923     0.000108    -0.000535
464793.84515   0.8400695238   0.2930639014   277.027325     2.179516     0.107698    -1.526323     0.013069    -0.020370    -0.894017     0.000000    -0.001323     0.467935     0.371613    -0.001323    -0.002191     0.001466
464793.85015   0.8400695249   0.2930638995   277.035002     2.181873     0.108260    -1.528652     0.013059    -0.020376    -0.894026     0.000000    -0.000723     0.449405     0.658176    -0.000723    -0.001891     0.001967
464793.85515   0.8400695260   0.2930638976   277.042692     2.184028     0.109058    -1.531144     0.013053    -0.020380    -0.894033     0.000000    -0.000923     0.381964     0.302172    -0.000923    -0.000192     0.000365
464793.86015   0.8400695271   0.2930638956   277.050390     2.185846     0.109801    -1.531943     0.013048    -0.020386    -0.894036     0.000000    -0.001522     0.331169    -0.013732    -0.001522    -0.002291     0.001166
464793.86514   0.8400695282   0.2930638937   277.058091     2.187572     0.110447    -1.532434     0.013036    -0.020391    -0.894042     0.000000    -0.000124     0.354685     0.313909    -0.000124    -0.002591     0.001166
464793.87015   0.8400695294   0.2930638917   277.065800     2.189278     0.111207    -1.534752     0.013031    -0.020389    -0.894042     0.000000     0.001474     0.300863     0.728594     0.001474     0.001207    -0.002737
464793.87515   0.8400695305   0.2930638898   277.073522     2.190683     0.111944    -1.537807     0.013034    -0.020385    -0.894030     0.000000     0.000376     0.230406     0.454744     0.000376     0.000008    -0.001436
464793.88015   0.8400695316   0.2930638878   277.081256     2.191821     0.112516    -1.539505     0.013028    -0.020387    -0.894031     0.000000    -0.001622     0.205989     0.193609    -0.001622    -0.003091     0.003568
464793.88515   0.8400695327   0.2930638859   277.088998     2.192955     0.113294    -1.540969     0.013017    -0.020397    -0.894049     0.000000    -0.002321     0.233473     0.487997    -0.002321    -0.000992     0.003167
464793.89015   0.8400695338   0.2930638839   277.096752     2.194178     0.114274    -1.544049     0.013014    -0.020409    -0.894059     0.000000    -0.002222     0.223808     0.855739    -0.002222    -0.000492    -0.000335
464793.89514   0.8400695350   0.2930638820   277.104523     2.195250     0.115145    -1.547716     0.013005    -0.020419    -0.894061     0.000000    -0.001323     0.156413     0.586781    -0.001323    -0.003590     0.001666
464793.90015   0.8400695361   0.2930638800   277.112309     2.196108     0.115885    -1.549771     0.012990    -0.020426    -0.894069     0.000000    -0.001422     0.163328     0.179919    -0.001422    -0.002091     0.001866
464793.90515   0.8400695372   0.2930638781   277.120103     2.196971     0.116795    -1.551007     0.012988    -0.020434    -0.894075     0.000000    -0.001622     0.171231     0.385307    -0.001622     0.001807    -0.000836
464793.91015   0.8400695384   0.2930638761   277.127907     2.197878     0.117618    -1.553678     0.012992    -0.020442    -0.894072     0.000000    -0.001722     0.168384     0.793149    -0.001722    -0.000592    -0.000035
464793.91515   0.8400695395   0.2930638742   277.135726     2.198791     0.118307    -1.557144     0.012988    -0.020450    -0.894075     0.000000    -0.000923     0.163561     0.569181    -0.000923    -0.000992     0.002367
464793.92015   0.8400695406   0.2930638722   277.143559     2.199706     0.119172    -1.559037     0.012990    -0.020455    -0.894084     0.000000    -0.001223     0.192956     0.111462    -0.001223     0.002107     0.000666
464793.92515   0.8400695417   0.2930638703   277.151399     2.200723     0.120378    -1.559766     0.012998    -0.020461    -0.894087     0.000000    -0.000623     0.217456     0.230785    -0.000623     0.000808     0.000165
464793.93015   0.8400695429   0.2930638683   277.159245     2.201955     0.121616    -1.561606     0.012994    -0.020462    -0.894091     0.000000     0.000675     0.270271     0.622976     0.000675    -0.003191     0.002067
464793.93515   0.8400695440   0.2930638664   277.167103     2.203348     0.122991    -1.564415     0.012983    -0.020459    -0.894100     0.000000     0.000475     0.258509     0.515390     0.000475    -0.000892     0.001266
464793.94015   0.8400695452   0.2930638644   277.174973     2.204727     0.124497    -1.566015     0.012983    -0.020459    -0.894103     0.000000    -0.000723     0.287859     0.058648    -0.000723     0.001307    -0.000836
464793.94515   0.8400695463   0.2930638625   277.182848     2.206193     0.126039    -1.566545     0.012983    -0.020461    -0.894104     0.000000     0.000475     0.299606     0.227849     0.000475    -0.001891     0.002167
464793.95015   0.8400695474   0.2930638605   277.190729     2.207870     0.127644    -1.568453     0.012977    -0.020460    -0.894114     0.000000     0.000076     0.370013     0.676765     0.000076    -0.000492     0.002167
464793.95515   0.8400695486   0.2930638586   277.198623     2.209764     0.129404    -1.571628     0.012983    -0.020461    -0.894119     0.000000    -0.000424     0.364156     0.620039    -0.000424     0.003706    -0.001436
464793.96015   0.8400695497   0.2930638566   277.206531     2.211682     0.131007    -1.573854     0.012991    -0.020465    -0.894114     0.000000    -0.001123     0.396474     0.218070    -0.001123    -0.001192    -0.000235
464793.96515   0.8400695509   0.2930638547   277.214448     2.213762     0.132480    -1.575131     0.012982    -0.020469    -0.894117     0.000000    -0.000324     0.428788     0.378467    -0.000324    -0.003191     0.002267
464793.97015   0.8400695520   0.2930638527   277.222374     2.216042     0.134014    -1.577571     0.012975    -0.020470    -0.894128     0.000000     0.000176     0.471827     0.722733     0.000176     0.001507     0.001866
464793.97515   0.8400695531   0.2930638508   277.230315     2.218449     0.135493    -1.580998     0.012981    -0.020469    -0.894134     0.000000     0.000376     0.466926     0.676767     0.000376     0.000408     0.000065
464793.98015   0.8400695543   0.2930638488   277.238272     2.220891     0.136466    -1.583854     0.012974    -0.020468    -0.894135     0.000000     0.000575     0.492335     0.454752     0.000575    -0.003790     0.000065
464793.98515   0.8400695555   0.2930638468   277.246243     2.223459     0.137114    -1.586377     0.012961    -0.020469    -0.894132     0.000000    -0.001223     0.514851     0.638620    -0.001223    -0.000892    -0.002137
